{
"type": "FeatureCollection",
"crs": { "type": "name", "properties": { "name": "urn:ogc:def:crs:OGC:1.3:CRS84" } },
                                                                                
"features": [
{ "type": "Feature", "properties": { "id": 1.000000, "osm_id": 445798470.000000, "name": null, "type": "fuel" }, "geometry": { "type": "Point", "coordinates": [ -46.650367450213565, -23.548516957478398 ] } },
{ "type": "Feature", "properties": { "id": 2.000000, "osm_id": 445798459.000000, "name": null, "type": "fuel" }, "geometry": { "type": "Point", "coordinates": [ -46.647862266993059, -23.550368855165544 ] } },
{ "type": "Feature", "properties": { "id": 3.000000, "osm_id": 445798465.000000, "name": null, "type": "fuel" }, "geometry": { "type": "Point", "coordinates": [ -46.6487902274934, -23.548033824579477 ] } },
{ "type": "Feature", "properties": { "id": 4.000000, "osm_id": 457559082.000000, "name": "4ª Delegacia de Polícia", "type": "police" }, "geometry": { "type": "Point", "coordinates": [ -46.649931423610468, -23.550560214015007 ] } },
{ "type": "Feature", "properties": { "id": 5.000000, "osm_id": 598678139.000000, "name": "EE Dra. Maria Augusta Saraiva", "type": "school" }, "geometry": { "type": "Point", "coordinates": [ -46.643413404245649, -23.55291896538705 ] } },
{ "type": "Feature", "properties": { "id": 6.000000, "osm_id": 598678153.000000, "name": null, "type": "fuel" }, "geometry": { "type": "Point", "coordinates": [ -46.640133900809985, -23.555292217451608 ] } },
{ "type": "Feature", "properties": { "id": 7.000000, "osm_id": 600160144.000000, "name": null, "type": "police" }, "geometry": { "type": "Point", "coordinates": [ -46.63417101489236, -23.544190470517322 ] } },
{ "type": "Feature", "properties": { "id": 8.000000, "osm_id": 619185596.000000, "name": "CAPE", "type": "school" }, "geometry": { "type": "Point", "coordinates": [ -46.651261128729907, -23.542290712163037 ] } },
{ "type": "Feature", "properties": { "id": 9.000000, "osm_id": 631961943.000000, "name": "Ambulatório do Sindicato dos Metalúrgicos de São Paulo", "type": "hospital" }, "geometry": { "type": "Point", "coordinates": [ -46.62996858009825, -23.552089156972869 ] } },
{ "type": "Feature", "properties": { "id": 10.000000, "osm_id": 632488679.000000, "name": "CEI Quintal da Criança", "type": "school" }, "geometry": { "type": "Point", "coordinates": [ -46.628129003808766, -23.554106681066742 ] } },
{ "type": "Feature", "properties": { "id": 11.000000, "osm_id": 661212030.000000, "name": "Posto NGM", "type": "fuel" }, "geometry": { "type": "Point", "coordinates": [ -46.626084238529586, -23.544677207634606 ] } },
{ "type": "Feature", "properties": { "id": 12.000000, "osm_id": 765169342.000000, "name": "1ª Delegacia de Polícia", "type": "police" }, "geometry": { "type": "Point", "coordinates": [ -46.634319626035619, -23.556997012738066 ] } },
{ "type": "Feature", "properties": { "id": 13.000000, "osm_id": 661212089.000000, "name": "Posto Maserati", "type": "fuel" }, "geometry": { "type": "Point", "coordinates": [ -46.626073006779336, -23.547449941204405 ] } },
{ "type": "Feature", "properties": { "id": 14.000000, "osm_id": 661212097.000000, "name": "Escola Roberto Simonsen (SENAI)", "type": "school" }, "geometry": { "type": "Point", "coordinates": [ -46.621237822114658, -23.542965120092386 ] } },
{ "type": "Feature", "properties": { "id": 15.000000, "osm_id": 745728710.000000, "name": "Anglo Vestibulares", "type": "school" }, "geometry": { "type": "Point", "coordinates": [ -46.634874256568622, -23.563672276606411 ] } },
{ "type": "Feature", "properties": { "id": 16.000000, "osm_id": 745728709.000000, "name": "EMEF Duque de Caxias", "type": "school" }, "geometry": { "type": "Point", "coordinates": [ -46.629129970685739, -23.554700035992397 ] } },
{ "type": "Feature", "properties": { "id": 17.000000, "osm_id": 745723004.000000, "name": "Escola Paulista de Direito", "type": "university" }, "geometry": { "type": "Point", "coordinates": [ -46.638209332022313, -23.561060978491753 ] } },
{ "type": "Feature", "properties": { "id": 18.000000, "osm_id": 745723012.000000, "name": "FMU", "type": "university" }, "geometry": { "type": "Point", "coordinates": [ -46.638549218196005, -23.560648924131726 ] } },
{ "type": "Feature", "properties": { "id": 19.000000, "osm_id": 745730429.000000, "name": "Ponto Policia Militar", "type": "police" }, "geometry": { "type": "Point", "coordinates": [ -46.650277428573474, -23.539323183163475 ] } },
{ "type": "Feature", "properties": { "id": 20.000000, "osm_id": 861890688.000000, "name": null, "type": "fuel" }, "geometry": { "type": "Point", "coordinates": [ -46.647156929841003, -23.557953639347261 ] } },
{ "type": "Feature", "properties": { "id": 21.000000, "osm_id": 863898783.000000, "name": "Extra", "type": "fuel" }, "geometry": { "type": "Point", "coordinates": [ -46.647214681153883, -23.565552505126306 ] } },
{ "type": "Feature", "properties": { "id": 22.000000, "osm_id": 865280465.000000, "name": null, "type": "fuel" }, "geometry": { "type": "Point", "coordinates": [ -46.64211521508215, -23.573671048902099 ] } },
{ "type": "Feature", "properties": { "id": 23.000000, "osm_id": 865280557.000000, "name": null, "type": "fuel" }, "geometry": { "type": "Point", "coordinates": [ -46.64409703226849, -23.56979886109303 ] } },
{ "type": "Feature", "properties": { "id": 24.000000, "osm_id": 865280539.000000, "name": null, "type": "fuel" }, "geometry": { "type": "Point", "coordinates": [ -46.643344672639643, -23.561832700316927 ] } },
{ "type": "Feature", "properties": { "id": 25.000000, "osm_id": 865280524.000000, "name": null, "type": "fuel" }, "geometry": { "type": "Point", "coordinates": [ -46.641279706973819, -23.558293274063857 ] } },
{ "type": "Feature", "properties": { "id": 26.000000, "osm_id": 976893043.000000, "name": null, "type": "school" }, "geometry": { "type": "Point", "coordinates": [ -46.623257525503327, -23.561240518857716 ] } },
{ "type": "Feature", "properties": { "id": 27.000000, "osm_id": 1041601048.000000, "name": "Colégio Santa Catarina de Sena", "type": "school" }, "geometry": { "type": "Point", "coordinates": [ -46.649882305657883, -23.57015366705437 ] } },
{ "type": "Feature", "properties": { "id": 28.000000, "osm_id": 1041601043.000000, "name": "Escola Pipoquinha", "type": "school" }, "geometry": { "type": "Point", "coordinates": [ -46.65275796899865, -23.570720367527937 ] } },
{ "type": "Feature", "properties": { "id": 29.000000, "osm_id": 1056733098.000000, "name": "Escola Dom Ratinho", "type": "school" }, "geometry": { "type": "Point", "coordinates": [ -46.657712344326455, -23.572758846379742 ] } },
{ "type": "Feature", "properties": { "id": 30.000000, "osm_id": 1056714456.000000, "name": "Escola de idiomas", "type": "school" }, "geometry": { "type": "Point", "coordinates": [ -46.657529954113386, -23.573029246576112 ] } },
{ "type": "Feature", "properties": { "id": 31.000000, "osm_id": 1056948107.000000, "name": "Universidade Cásper Líbero", "type": "school" }, "geometry": { "type": "Point", "coordinates": [ -46.651103213674133, -23.56556591617138 ] } },
{ "type": "Feature", "properties": { "id": 32.000000, "osm_id": 1059209790.000000, "name": "Escola do Vinho", "type": "school" }, "geometry": { "type": "Point", "coordinates": [ -46.648990722617327, -23.570944248161709 ] } },
{ "type": "Feature", "properties": { "id": 33.000000, "osm_id": 1059213957.000000, "name": "Escola de Yoga", "type": "school" }, "geometry": { "type": "Point", "coordinates": [ -46.648378173133409, -23.570250980950217 ] } },
{ "type": "Feature", "properties": { "id": 34.000000, "osm_id": 1066864702.000000, "name": "Escola Kumon", "type": "school" }, "geometry": { "type": "Point", "coordinates": [ -46.656138306729503, -23.571164105481927 ] } },
{ "type": "Feature", "properties": { "id": 35.000000, "osm_id": 1066864052.000000, "name": "DeRose Method Casa Paulista", "type": "school" }, "geometry": { "type": "Point", "coordinates": [ -46.656446760766265, -23.571035024173057 ] } },
{ "type": "Feature", "properties": { "id": 36.000000, "osm_id": 1066862942.000000, "name": "Colégio Winnicott", "type": "school" }, "geometry": { "type": "Point", "coordinates": [ -46.657170705743368, -23.570135562143516 ] } },
{ "type": "Feature", "properties": { "id": 37.000000, "osm_id": 1059523873.000000, "name": "Escola de Inglês Uptime", "type": "school" }, "geometry": { "type": "Point", "coordinates": [ -46.650946807360924, -23.569298210016484 ] } },
{ "type": "Feature", "properties": { "id": 38.000000, "osm_id": 1066868351.000000, "name": "Escola UNS de Inglês", "type": "school" }, "geometry": { "type": "Point", "coordinates": [ -46.654027408234271, -23.569563161975793 ] } },
{ "type": "Feature", "properties": { "id": 39.000000, "osm_id": 1069565765.000000, "name": "Escola Assunção", "type": "school" }, "geometry": { "type": "Point", "coordinates": [ -46.659995323293828, -23.56998452024834 ] } },
{ "type": "Feature", "properties": { "id": 40.000000, "osm_id": 1066869006.000000, "name": "Supletivo e cursos técnicos Inaci", "type": "school" }, "geometry": { "type": "Point", "coordinates": [ -46.652916973701849, -23.571716472901073 ] } },
{ "type": "Feature", "properties": { "id": 41.000000, "osm_id": 1646829764.000000, "name": "Pró Matre Paulista", "type": "hospital" }, "geometry": { "type": "Point", "coordinates": [ -46.649802845215781, -23.565588463490911 ] } },
{ "type": "Feature", "properties": { "id": 42.000000, "osm_id": 1693998312.000000, "name": "Hospital General do Exército", "type": "hospital" }, "geometry": { "type": "Point", "coordinates": [ -46.613449273866792, -23.569670115060291 ] } },
{ "type": "Feature", "properties": { "id": 43.000000, "osm_id": 1939918421.000000, "name": "Hospital 9 de Julho", "type": "hospital" }, "geometry": { "type": "Point", "coordinates": [ -46.654975652940294, -23.559392812122155 ] } },
{ "type": "Feature", "properties": { "id": 44.000000, "osm_id": 2082333804.000000, "name": "5ª Delegacia de Polícia", "type": "police" }, "geometry": { "type": "Point", "coordinates": [ -46.638059882688736, -23.565582763796751 ] } },
{ "type": "Feature", "properties": { "id": 45.000000, "osm_id": 2082412958.000000, "name": "3ª Delegacia de Polícia", "type": "police" }, "geometry": { "type": "Point", "coordinates": [ -46.639666525889027, -23.539448408796886 ] } },
{ "type": "Feature", "properties": { "id": 46.000000, "osm_id": 2081696096.000000, "name": "Hospital Pérola Byington", "type": "hospital" }, "geometry": { "type": "Point", "coordinates": [ -46.639544233921725, -23.55621707664778 ] } },
{ "type": "Feature", "properties": { "id": 47.000000, "osm_id": 2006327143.000000, "name": "Instituto Nacional de Educação a Distância", "type": "school" }, "geometry": { "type": "Point", "coordinates": [ -46.655606139696999, -23.53351821230163 ] } },
{ "type": "Feature", "properties": { "id": 48.000000, "osm_id": 2081717202.000000, "name": "Hospital do Servidor Público Municipal", "type": "hospital" }, "geometry": { "type": "Point", "coordinates": [ -46.639173083249197, -23.567074910199718 ] } },
{ "type": "Feature", "properties": { "id": 49.000000, "osm_id": 2140878087.000000, "name": null, "type": "police" }, "geometry": { "type": "Point", "coordinates": [ -46.649081163352548, -23.545226976663741 ] } },
{ "type": "Feature", "properties": { "id": 50.000000, "osm_id": 2396502007.000000, "name": null, "type": "fuel" }, "geometry": { "type": "Point", "coordinates": [ -46.629533307866438, -23.549773320945064 ] } },
{ "type": "Feature", "properties": { "id": 51.000000, "osm_id": 2419402049.000000, "name": "Biblioteca Adelpha Figueiredo", "type": "library" }, "geometry": { "type": "Point", "coordinates": [ -46.610660363223872, -23.526384709786782 ] } },
{ "type": "Feature", "properties": { "id": 52.000000, "osm_id": 2581662655.000000, "name": "Pronto Socorro Hospital Nossa Senhora do Pari", "type": "hospital" }, "geometry": { "type": "Point", "coordinates": [ -46.621295573427517, -23.531798832503654 ] } },
{ "type": "Feature", "properties": { "id": 53.000000, "osm_id": 2581685971.000000, "name": "Centro Administrativo da Polícia Militar", "type": "police" }, "geometry": { "type": "Point", "coordinates": [ -46.625336908042634, -23.529088376474448 ] } },
{ "type": "Feature", "properties": { "id": 54.000000, "osm_id": 2581823605.000000, "name": "12º Distrito Policial", "type": "police" }, "geometry": { "type": "Point", "coordinates": [ -46.612458532911681, -23.52990301364386 ] } },
{ "type": "Feature", "properties": { "id": 55.000000, "osm_id": 2612969210.000000, "name": "Escola Municipal", "type": "school" }, "geometry": { "type": "Point", "coordinates": [ -46.620236519961537, -23.523584651212644 ] } },
{ "type": "Feature", "properties": { "id": 56.000000, "osm_id": 2616384485.000000, "name": null, "type": "fuel" }, "geometry": { "type": "Point", "coordinates": [ -46.607030077140394, -23.527852632489555 ] } },
{ "type": "Feature", "properties": { "id": 57.000000, "osm_id": 2684571389.000000, "name": "Anglo Sergipe", "type": "school" }, "geometry": { "type": "Point", "coordinates": [ -46.654798375688181, -23.549715569632212 ] } },
{ "type": "Feature", "properties": { "id": 58.000000, "osm_id": 2826959609.000000, "name": "34º Batalhão de Policia Militar", "type": "police" }, "geometry": { "type": "Point", "coordinates": [ -46.605809252943175, -23.545442810670465 ] } },
{ "type": "Feature", "properties": { "id": 59.000000, "osm_id": 2803954603.000000, "name": "Universidade Anhembi Morumbi", "type": "university" }, "geometry": { "type": "Point", "coordinates": [ -46.610872760650295, -23.550961958634105 ] } },
{ "type": "Feature", "properties": { "id": 60.000000, "osm_id": 2832740668.000000, "name": "Hospital Sancta Maggiore", "type": "hospital" }, "geometry": { "type": "Point", "coordinates": [ -46.624879507586449, -23.55231706092016 ] } },
{ "type": "Feature", "properties": { "id": 61.000000, "osm_id": 2881867970.000000, "name": "Orestes Guimarães", "type": "school" }, "geometry": { "type": "Point", "coordinates": [ -46.624021200701492, -23.533097356943301 ] } },
{ "type": "Feature", "properties": { "id": 62.000000, "osm_id": 3017685677.000000, "name": "Hospital Adventista de São Paulo", "type": "hospital" }, "geometry": { "type": "Point", "coordinates": [ -46.634190628545781, -23.563419143130574 ] } },
{ "type": "Feature", "properties": { "id": 63.000000, "osm_id": 3035352758.000000, "name": "Policia Militar de São Paulo", "type": "police" }, "geometry": { "type": "Point", "coordinates": [ -46.620758963986354, -23.562992420440022 ] } },
{ "type": "Feature", "properties": { "id": 64.000000, "osm_id": 3430620691.000000, "name": "Corregedoria da Polícia Militar", "type": "police" }, "geometry": { "type": "Point", "coordinates": [ -46.629578570143593, -23.531424245250832 ] } },
{ "type": "Feature", "properties": { "id": 65.000000, "osm_id": 3449930644.000000, "name": "Hospital Santa Helena", "type": "hospital" }, "geometry": { "type": "Point", "coordinates": [ -46.638568915668458, -23.562268559281961 ] } },
{ "type": "Feature", "properties": { "id": 66.000000, "osm_id": 3505733243.000000, "name": null, "type": "fuel" }, "geometry": { "type": "Point", "coordinates": [ -46.616542112318797, -23.532880936203355 ] } },
{ "type": "Feature", "properties": { "id": 67.000000, "osm_id": 3508958491.000000, "name": "100 Bandeira", "type": "fuel" }, "geometry": { "type": "Point", "coordinates": [ -46.625404130906077, -23.53106818200402 ] } },
{ "type": "Feature", "properties": { "id": 68.000000, "osm_id": 3509368508.000000, "name": null, "type": "fuel" }, "geometry": { "type": "Point", "coordinates": [ -46.616723831979584, -23.531405805063855 ] } },
{ "type": "Feature", "properties": { "id": 69.000000, "osm_id": 3522273913.000000, "name": null, "type": "school" }, "geometry": { "type": "Point", "coordinates": [ -46.63669497357597, -23.531576376793424 ] } },
{ "type": "Feature", "properties": { "id": 70.000000, "osm_id": 3517981779.000000, "name": null, "type": "fuel" }, "geometry": { "type": "Point", "coordinates": [ -46.635298045593053, -23.574851304687968 ] } },
{ "type": "Feature", "properties": { "id": 71.000000, "osm_id": 3529235443.000000, "name": "Unibes", "type": "school" }, "geometry": { "type": "Point", "coordinates": [ -46.623429354518407, -23.525384245823997 ] } },
{ "type": "Feature", "properties": { "id": 72.000000, "osm_id": 3529235444.000000, "name": "100 Bandeira", "type": "fuel" }, "geometry": { "type": "Point", "coordinates": [ -46.625660281867056, -23.52523563468074 ] } },
{ "type": "Feature", "properties": { "id": 73.000000, "osm_id": 3559321836.000000, "name": null, "type": "townhall" }, "geometry": { "type": "Point", "coordinates": [ -46.623579977318428, -23.56960062908297 ] } },
{ "type": "Feature", "properties": { "id": 74.000000, "osm_id": 3653382455.000000, "name": null, "type": "fire_station" }, "geometry": { "type": "Point", "coordinates": [ -46.656450616441731, -23.551500747370081 ] } },
{ "type": "Feature", "properties": { "id": 75.000000, "osm_id": 3704435426.000000, "name": null, "type": "fuel" }, "geometry": { "type": "Point", "coordinates": [ -46.638188628721473, -23.550522663088767 ] } },
{ "type": "Feature", "properties": { "id": 76.000000, "osm_id": 3712576678.000000, "name": null, "type": "fuel" }, "geometry": { "type": "Point", "coordinates": [ -46.618989208950289, -23.557693548891791 ] } },
{ "type": "Feature", "properties": { "id": 77.000000, "osm_id": 3757650386.000000, "name": "Universidade Paulista", "type": "university" }, "geometry": { "type": "Point", "coordinates": [ -46.639595866445291, -23.571814876444336 ] } },
{ "type": "Feature", "properties": { "id": 78.000000, "osm_id": 3759018564.000000, "name": "Método DeRose - Unidas Jardins", "type": "school" }, "geometry": { "type": "Point", "coordinates": [ -46.665202580640369, -23.557019727695657 ] } },
{ "type": "Feature", "properties": { "id": 79.000000, "osm_id": 3759018565.000000, "name": "Alliance Francaise", "type": "school" }, "geometry": { "type": "Point", "coordinates": [ -46.659662058823642, -23.561804118027112 ] } },
{ "type": "Feature", "properties": { "id": 80.000000, "osm_id": 3763309442.000000, "name": null, "type": "fuel" }, "geometry": { "type": "Point", "coordinates": [ -46.648064522316645, -23.545559067667483 ] } },
{ "type": "Feature", "properties": { "id": 81.000000, "osm_id": 3833516015.000000, "name": "EMEI Monteiro Lobato", "type": "school" }, "geometry": { "type": "Point", "coordinates": [ -46.65957245627871, -23.545502070725917 ] } },
{ "type": "Feature", "properties": { "id": 82.000000, "osm_id": 3855559530.000000, "name": "Biblioteca Monteiro Lobato", "type": "library" }, "geometry": { "type": "Point", "coordinates": [ -46.649205550795642, -23.544972082988238 ] } },
{ "type": "Feature", "properties": { "id": 83.000000, "osm_id": 3878854083.000000, "name": null, "type": "fuel" }, "geometry": { "type": "Point", "coordinates": [ -46.662717681625537, -23.56657065490478 ] } },
{ "type": "Feature", "properties": { "id": 84.000000, "osm_id": 3919268142.000000, "name": null, "type": "fuel" }, "geometry": { "type": "Point", "coordinates": [ -46.61051837378411, -23.53884574995871 ] } },
{ "type": "Feature", "properties": { "id": 85.000000, "osm_id": 4015903396.000000, "name": null, "type": "fuel" }, "geometry": { "type": "Point", "coordinates": [ -46.607914200287119, -23.535905210687389 ] } },
{ "type": "Feature", "properties": { "id": 86.000000, "osm_id": 4128372409.000000, "name": "Posto Policial", "type": "police" }, "geometry": { "type": "Point", "coordinates": [ -46.660417938851815, -23.558201324586037 ] } },
{ "type": "Feature", "properties": { "id": 87.000000, "osm_id": 4128411689.000000, "name": "Faculdade Mundial", "type": "school" }, "geometry": { "type": "Point", "coordinates": [ -46.660433529191721, -23.557542674634647 ] } },
{ "type": "Feature", "properties": { "id": 88.000000, "osm_id": 4128788908.000000, "name": "Posto Policial", "type": "police" }, "geometry": { "type": "Point", "coordinates": [ -46.648838339617612, -23.567603808289959 ] } },
{ "type": "Feature", "properties": { "id": 89.000000, "osm_id": 4134768092.000000, "name": "Alumni- Cursos de inglês", "type": "school" }, "geometry": { "type": "Point", "coordinates": [ -46.661279263221928, -23.561395751704481 ] } },
{ "type": "Feature", "properties": { "id": 90.000000, "osm_id": 4211032428.000000, "name": "Universidade Estadual Paulista Júlio de Mesquita Filho", "type": "university" }, "geometry": { "type": "Point", "coordinates": [ -46.64088123129693, -23.547851434366407 ] } },
{ "type": "Feature", "properties": { "id": 91.000000, "osm_id": 4263391875.000000, "name": null, "type": "fuel" }, "geometry": { "type": "Point", "coordinates": [ -46.649221057316538, -23.56431231873276 ] } },
{ "type": "Feature", "properties": { "id": 92.000000, "osm_id": 4296331292.000000, "name": "Medicina Diagnóstica Lavoisier", "type": "hospital" }, "geometry": { "type": "Point", "coordinates": [ -46.643045941610524, -23.545179535091791 ] } },
{ "type": "Feature", "properties": { "id": 93.000000, "osm_id": 4351636645.000000, "name": "Escola Estadual Caetano de Campos", "type": "school" }, "geometry": { "type": "Point", "coordinates": [ -46.630319865660255, -23.565255366658789 ] } },
{ "type": "Feature", "properties": { "id": 94.000000, "osm_id": 4364924212.000000, "name": null, "type": "fuel" }, "geometry": { "type": "Point", "coordinates": [ -46.624208033323214, -23.554461654666142 ] } },
{ "type": "Feature", "properties": { "id": 95.000000, "osm_id": 4364942023.000000, "name": "100 Bandeira", "type": "fuel" }, "geometry": { "type": "Point", "coordinates": [ -46.614307077837566, -23.5543276280344 ] } },
{ "type": "Feature", "properties": { "id": 96.000000, "osm_id": 4364934988.000000, "name": null, "type": "fuel" }, "geometry": { "type": "Point", "coordinates": [ -46.617536206035169, -23.557416610810918 ] } },
{ "type": "Feature", "properties": { "id": 97.000000, "osm_id": 4365728464.000000, "name": null, "type": "fuel" }, "geometry": { "type": "Point", "coordinates": [ -46.62210886949245, -23.560031261686873 ] } },
{ "type": "Feature", "properties": { "id": 98.000000, "osm_id": 4365728463.000000, "name": null, "type": "fuel" }, "geometry": { "type": "Point", "coordinates": [ -46.618069043619897, -23.563966565226849 ] } },
{ "type": "Feature", "properties": { "id": 99.000000, "osm_id": 4373829792.000000, "name": "Irmandade da Santa Casa de Misericórdia de Saõ Paulo", "type": "hospital" }, "geometry": { "type": "Point", "coordinates": [ -46.648842949664356, -23.54293134102258 ] } },
{ "type": "Feature", "properties": { "id": 100.000000, "osm_id": 4365748257.000000, "name": null, "type": "fuel" }, "geometry": { "type": "Point", "coordinates": [ -46.613633927193689, -23.566775340980286 ] } },
{ "type": "Feature", "properties": { "id": 101.000000, "osm_id": 4365790864.000000, "name": "100 Bandeira", "type": "fuel" }, "geometry": { "type": "Point", "coordinates": [ -46.621502774073974, -23.561231047307132 ] } },
{ "type": "Feature", "properties": { "id": 102.000000, "osm_id": 4365728467.000000, "name": null, "type": "fuel" }, "geometry": { "type": "Point", "coordinates": [ -46.611017767575191, -23.567744205168111 ] } },
{ "type": "Feature", "properties": { "id": 103.000000, "osm_id": 4365728468.000000, "name": null, "type": "fuel" }, "geometry": { "type": "Point", "coordinates": [ -46.613585060698199, -23.567372803038495 ] } },
{ "type": "Feature", "properties": { "id": 104.000000, "osm_id": 4365728466.000000, "name": null, "type": "fuel" }, "geometry": { "type": "Point", "coordinates": [ -46.621929580583554, -23.567580674237206 ] } },
{ "type": "Feature", "properties": { "id": 105.000000, "osm_id": 4381762589.000000, "name": "Examen", "type": "hospital" }, "geometry": { "type": "Point", "coordinates": [ -46.632247619571132, -23.529345952358963 ] } },
{ "type": "Feature", "properties": { "id": 106.000000, "osm_id": 4394960103.000000, "name": "Via Bresser", "type": "fuel" }, "geometry": { "type": "Point", "coordinates": [ -46.606576280902573, -23.542485172316674 ] } },
{ "type": "Feature", "properties": { "id": 107.000000, "osm_id": 4398250517.000000, "name": "Hospital Bandeirantes", "type": "hospital" }, "geometry": { "type": "Point", "coordinates": [ -46.634896720069122, -23.558230745066169 ] } },
{ "type": "Feature", "properties": { "id": 108.000000, "osm_id": 4431191038.000000, "name": "6ª delegacia policial", "type": "police" }, "geometry": { "type": "Point", "coordinates": [ -46.623743256792231, -23.567698272338731 ] } },
{ "type": "Feature", "properties": { "id": 109.000000, "osm_id": 4436453817.000000, "name": null, "type": "fuel" }, "geometry": { "type": "Point", "coordinates": [ -46.63310316042805, -23.571659056864348 ] } },
{ "type": "Feature", "properties": { "id": 110.000000, "osm_id": 4442483033.000000, "name": "Colégio Nova Geração", "type": "school" }, "geometry": { "type": "Point", "coordinates": [ -46.63286394091147, -23.56622448230371 ] } }
]
}
